country,city,latitude,longitude
China, Shenzhen, 22.5415, 114.0596
Philippines, Manila, 14.5958, 120.9772
United States, San Francisco, 37.7558, -122.4449
Taiwan, Taipei, 25.0375, 121.5625
Panama, Panama City, 8.9833, -79.5167